[{"geoname_id":"709930","city":"Днепр","city_en":"Dnipro","longitude":35.03865,"latitude":48.4593},{"geoname_id":"710735","city":"Чернигов","city_en":"Chernihiv","longitude":31.28487,"latitude":51.50551},{"geoname_id":"703448","city":"Киев","city_en":"Kyiv","longitude":30.5238,"latitude":50.45466},{"geoname_id":"687700","city":"Запорожье","city_en":"Zaporizhia","longitude":35.19031,"latitude":47.82289},{"geoname_id":"698740","city":"Одесса","city_en":"Odesa","longitude":30.73262,"latitude":46.47747},{"geoname_id":"702550","city":"Львов","city_en":"Lviv","longitude":24.02324,"latitude":49.83826},{"geoname_id":"707471","city":"Ивано-Франковск","city_en":"Ivano-Frankivsk","longitude":24.70972,"latitude":48.9215},{"geoname_id":"706483","city":"Харьков","city_en":"Kharkiv","longitude":36.25272,"latitude":49.98081},{"geoname_id":"699445","city":"Новомосковск","city_en":"Novomoskovsk","longitude":35.24548,"latitude":48.63799},{"geoname_id":"703845","city":"Кривой Рог","city_en":"Kryvyi Rih","longitude":33.38044,"latitude":47.90966},{"geoname_id":"696643","city":"Полтава","city_en":"Poltava","longitude":34.54073,"latitude":49.59373},{"geoname_id":"702569","city":"Луцк","city_en":"Lutsk","longitude":25.34244,"latitude":50.75932},{"geoname_id":"691650","city":"Тернополь","city_en":"Ternopil","longitude":25.58918,"latitude":49.55342},{"geoname_id":"690548","city":"Ужгород","city_en":"Uzhhorod","longitude":22.3,"latitude":48.61667},{"geoname_id":"710719","city":"Черновцы","city_en":"Chernivtsi","longitude":25.94034,"latitude":48.29149},{"geoname_id":"695594","city":"Ровно","city_en":"Rivne","longitude":26.22743,"latitude":50.62308},{"geoname_id":"696943","city":"Підгородне","city_en":"Pidhorodne","longitude":35.1068,"latitude":48.57528},{"geoname_id":"702774","city":"Лозуватка","city_en":"Lozuvatka","longitude":33.28581,"latitude":48.0571},{"geoname_id":"704147","city":"Кременчуг","city_en":"Kremenchuk","longitude":33.42041,"latitude":49.06802},{"geoname_id":"711894","city":"Богодухов","city_en":"Bohodukhiv","longitude":35.52765,"latitude":50.16466},{"geoname_id":"706369","city":"Хмельницкий","city_en":"Khmelnytskyi","longitude":26.99653,"latitude":49.42161},{"geoname_id":"706950","city":"Каменец-Подольский","city_en":"Kamyanets-Podilsky","longitude":26.58559,"latitude":48.6845},{"geoname_id":"686967","city":"Житомир","city_en":"Zhytomyr","longitude":28.67669,"latitude":50.26487},{"geoname_id":"693615","city":"Сквира","city_en":"Skvyra","longitude":29.66569,"latitude":49.73177},{"geoname_id":"690688","city":"Умань","city_en":"Uman'","longitude":30.22184,"latitude":48.74838},{"geoname_id":"706448","city":"Херсон","city_en":"Kherson","longitude":32.6178,"latitude":46.65581},{"geoname_id":"705812","city":"Кропивницкий","city_en":"Kropyvnytskyi","longitude":32.2597,"latitude":48.5132},{"geoname_id":"708695","city":"Гнедин","city_en":"Hnidyn","longitude":30.71059,"latitude":50.32899},{"geoname_id":"698625","city":"Александрия","city_en":"Oleksandriya","longitude":33.11593,"latitude":48.66961},{"geoname_id":"702231","city":"Малая Даниловка","city_en":"Mala Danylivka","longitude":36.16564,"latitude":50.06354},{"geoname_id":"695859","city":"Рахов","city_en":"Rakhiv","longitude":24.20089,"latitude":48.0526},{"geoname_id":"708313","city":"Городок","city_en":"Horodok","longitude":23.64806,"latitude":49.78465},{"geoname_id":"712160","city":"Белгород-Днестровский","city_en":"Bilhorod-Dnistrovs’kyy","longitude":30.34938,"latitude":46.1952},{"geoname_id":"692742","city":"Старі Кути","city_en":"Stari Kuty","longitude":25.17293,"latitude":48.27093},{"geoname_id":"691255","city":"Тростянец","city_en":"Trostyanets'","longitude":34.96567,"latitude":50.48478},{"geoname_id":"695965","city":"Пятихатки","city_en":"P'yatykhatky","longitude":33.71056,"latitude":48.41333},{"geoname_id":"711515","city":"Боярка","city_en":"Boyarka","longitude":30.29728,"latitude":50.31911},{"geoname_id":"707688","city":"Черноморск","city_en":"Chornomors’k","longitude":30.65478,"latitude":46.30495},{"geoname_id":"710463","city":"Чинадиево","city_en":"Chynadiyovo","longitude":22.8217,"latitude":48.48179},{"geoname_id":"709540","city":"Дубно","city_en":"Dubno","longitude":25.73432,"latitude":50.41694},{"geoname_id":"698782","city":"Обухов","city_en":"Obukhiv","longitude":30.61848,"latitude":50.10689},{"geoname_id":"701822","city":"Мариуполь","city_en":"Mariupol","longitude":37.54131,"latitude":47.09514},{"geoname_id":"697637","city":"Переяслав-Хмельницкий","city_en":"Pereiaslav-Khmelnytskyi","longitude":31.44969,"latitude":50.06739},{"geoname_id":"710791","city":"Черкассы","city_en":"Cherkasy","longitude":32.06207,"latitude":49.42854},{"geoname_id":"6559559","city":"Горишние Плавни","city_en":"Horishni Plavni","longitude":33.63567,"latitude":49.01018},{"geoname_id":"687826","city":"Заліщики","city_en":"Zalishchyky","longitude":25.73794,"latitude":48.64331},{"geoname_id":"708324","city":"Городниця","city_en":"Horodnytsya","longitude":27.31676,"latitude":50.80697},{"geoname_id":"706244","city":"Хотин","city_en":"Khotyn","longitude":26.49121,"latitude":48.50693},{"geoname_id":"707840","city":"Гусятин","city_en":"Husiatyn","longitude":26.1848,"latitude":49.0729},{"geoname_id":"689817","city":"Верховина","city_en":"Verkhovyna","longitude":24.79112,"latitude":48.15571},{"geoname_id":"3078234","city":"Часлав","city_en":"Čáslav","longitude":15.38972,"latitude":49.91099},{"geoname_id":"681876","city":"Кимпень","city_en":"Câmpeni","longitude":23.05,"latitude":46.36667},{"geoname_id":"694273","city":"Щорс","city_en":"Shchors","longitude":31.94504,"latitude":51.81865},{"geoname_id":"703428","city":"Ладижин","city_en":"Ladyzhyn","longitude":29.23679,"latitude":48.68496},{"geoname_id":"687196","city":"Желтые Воды","city_en":"Zhovti Vody","longitude":33.50374,"latitude":48.34493},{"geoname_id":"689558","city":"Винница","city_en":"Vinnytsia","longitude":28.48097,"latitude":49.23278},{"geoname_id":"699553","city":"Новоград-Волынский","city_en":"Novohrad-Volynskyi","longitude":27.6165,"latitude":50.59412},{"geoname_id":"3060665","city":"Čierny Balog","city_en":"Čierny Balog","longitude":19.65125,"latitude":48.74722},{"geoname_id":"698131","city":"Овруч","city_en":"Ovruch","longitude":28.80351,"latitude":51.3246},{"geoname_id":"690312","city":"Ватутіне","city_en":"Vatutine","longitude":31.06211,"latitude":49.01502},{"geoname_id":"710041","city":"Диканька","city_en":"Dykan'ka","longitude":34.52787,"latitude":49.82501},{"geoname_id":"711390","city":"Бровары","city_en":"Brovary","longitude":30.80671,"latitude":50.51809},{"geoname_id":"700261","city":"Нетешин","city_en":"Netishyn","longitude":26.64171,"latitude":50.34004},{"geoname_id":"704422","city":"Покровск","city_en":"Pokrovsk","longitude":37.17585,"latitude":48.28198},{"geoname_id":"695205","city":"Рудно","city_en":"Rudne","longitude":23.9,"latitude":49.83333},{"geoname_id":"678499","city":"Фэгэраш","city_en":"Făgăraș","longitude":24.96667,"latitude":45.85},{"geoname_id":"699839","city":"Новая Каховка","city_en":"Nova Kakhovka","longitude":33.34864,"latitude":46.75451},{"geoname_id":"706165","city":"Хуст","city_en":"Khust","longitude":23.29909,"latitude":48.1793},{"geoname_id":"693582","city":"Славское","city_en":"Slavs'ke","longitude":23.44587,"latitude":48.84734},{"geoname_id":"710400","city":"Чортков","city_en":"Chortkiv","longitude":25.79804,"latitude":49.01709},{"geoname_id":"688860","city":"Вознесенск","city_en":"Voznesensk","longitude":31.33078,"latitude":47.56494},{"geoname_id":"687578","city":"Заставна","city_en":"Zastavna","longitude":25.84369,"latitude":48.52307},{"geoname_id":"691037","city":"Цюрупинск","city_en":"Tsyurupinsk","longitude":32.7189,"latitude":46.61842},{"geoname_id":"8341919","city":"Вараш","city_en":"Varash","longitude":25.84738,"latitude":51.3509},{"geoname_id":"616196","city":"Старый Добротвор","city_en":"Staryy Dobrotvir","longitude":24.37701,"latitude":50.23154},{"geoname_id":"690773","city":"Украинка","city_en":"Ukrainka","longitude":30.74612,"latitude":50.14317},{"geoname_id":"692702","city":"Старый Самбор","city_en":"Staryy Sambir","longitude":23.00056,"latitude":49.43856},{"geoname_id":"709373","city":"Димер","city_en":"Dymer","longitude":30.3026,"latitude":50.78647},{"geoname_id":"504341","city":"Псков","city_en":"Pskov","longitude":28.3496,"latitude":57.8136},{"geoname_id":"695104","city":"Русская Поляна","city_en":"Ruska Poliana","longitude":31.92009,"latitude":49.417},{"geoname_id":"699753","city":"Новгород-Северский","city_en":"Novhorod-Sivers'kyy","longitude":33.2615,"latitude":52.00577},{"geoname_id":"697576","city":"Первомайский","city_en":"Pervomays'kyy","longitude":36.21471,"latitude":49.38742},{"geoname_id":"704885","city":"Коростышев","city_en":"Korostyshiv","longitude":29.0563,"latitude":50.31723},{"geoname_id":"700646","city":"Мукачево","city_en":"Mukacheve","longitude":22.71779,"latitude":48.43919},{"geoname_id":"686875","city":"Золотоноша","city_en":"Zolotonosha","longitude":32.04047,"latitude":49.66832},{"geoname_id":"692372","city":"Стрый","city_en":"Stryi","longitude":23.85609,"latitude":49.26223},{"geoname_id":"694392","city":"Шабо","city_en":"Shabo","longitude":30.38595,"latitude":46.13262},{"geoname_id":"698929","city":"Новые Петровцы","city_en":"Novi Petrivtsi","longitude":30.4431,"latitude":50.62754},{"geoname_id":"692129","city":"Свалява","city_en":"Svalyava","longitude":22.99578,"latitude":48.54853},{"geoname_id":"690648","city":"Усатове","city_en":"Usatove","longitude":30.6596,"latitude":46.53296},{"geoname_id":"689487","city":"Вишневе","city_en":"Vyshneve","longitude":30.3705,"latitude":50.38913},{"geoname_id":"700569","city":"Николаев","city_en":"Mykolayiv","longitude":31.9974,"latitude":46.96591},{"geoname_id":"5913490","city":"Калгари","city_en":"Calgary","longitude":-114.08529,"latitude":51.05011},{"geoname_id":"6174041","city":"Виктория","city_en":"Victoria","longitude":-123.3693,"latitude":48.43294},{"geoname_id":"6167865","city":"Торонто","city_en":"Toronto","longitude":-79.4163,"latitude":43.70011},{"geoname_id":"6178582","city":"West End","city_en":"West End","longitude":-123.13333,"latitude":49.28333},{"geoname_id":"8516167","city":"Горенка","city_en":"Horenka","longitude":30.33217,"latitude":50.55731},{"geoname_id":"707308","city":"Измаил","city_en":"Izmail","longitude":28.84079,"latitude":45.34929},{"geoname_id":"688365","city":"Ясиня","city_en":"Yasinya","longitude":24.36042,"latitude":48.27937},{"geoname_id":"704508","city":"Краматорск","city_en":"Kramatorsk","longitude":37.55629,"latitude":48.72305},{"geoname_id":"695912","city":"Радомышль","city_en":"Radomyshl","longitude":29.22911,"latitude":50.49613},{"geoname_id":"702760","city":"Лозовая","city_en":"Lozova","longitude":36.31755,"latitude":48.88937},{"geoname_id":"694864","city":"Самбор","city_en":"Sambir","longitude":23.19752,"latitude":49.5183},{"geoname_id":"693658","city":"Сколе","city_en":"Skole","longitude":23.51346,"latitude":49.03717},{"geoname_id":"695019","city":"Рыльск","city_en":"Ryl'sk","longitude":34.6822,"latitude":51.5655},{"geoname_id":"709114","city":"Фонтанка","city_en":"Fontanka","longitude":30.85965,"latitude":46.56646},{"geoname_id":"707489","city":"Иванков","city_en":"Ivankiv","longitude":29.89426,"latitude":50.93865},{"geoname_id":"831208","city":"Озёрный","city_en":"Ozërnyy","longitude":33.65,"latitude":57.9},{"geoname_id":"2609894","city":"Янтарный","city_en":"Yantarnyy","longitude":19.94016,"latitude":54.87102},{"geoname_id":"688455","city":"Яремче","city_en":"Yaremche","longitude":24.55436,"latitude":48.45157},{"geoname_id":"692194","city":"Сумы","city_en":"Sumy","longitude":34.80029,"latitude":50.9216},{"geoname_id":"617239","city":"Тирасполь","city_en":"Tiraspol","longitude":29.62909,"latitude":46.84274},{"geoname_id":"6930327","city":"Славутич","city_en":"Slavutych","longitude":30.71806,"latitude":51.5225},{"geoname_id":"692146","city":"Сутиски","city_en":"Sutysky","longitude":28.41733,"latitude":49.04245},{"geoname_id":"520555","city":"Нижний Новгород","city_en":"Nizhny Novgorod","longitude":44.00205,"latitude":56.32867},{"geoname_id":"700606","city":"Муровані Курилівці","city_en":"Murovani Kurylivtsi","longitude":27.51892,"latitude":48.72348},{"geoname_id":"504576","city":"Протвино","city_en":"Protvino","longitude":37.21583,"latitude":54.86821},{"geoname_id":"624784","city":"Новополоцк","city_en":"Navapolatsk","longitude":28.5987,"latitude":55.5318},{"geoname_id":"703142","city":"Letichev","city_en":"Letychiv","longitude":27.63051,"latitude":49.38263},{"geoname_id":"502265","city":"Редкино","city_en":"Redkino","longitude":36.29674,"latitude":56.64754},{"geoname_id":"709932","city":"Каменское","city_en":"Kamianske","longitude":34.6021,"latitude":48.51134},{"geoname_id":"625324","city":"Мозырь","city_en":"Mazyr","longitude":29.2456,"latitude":52.0495},{"geoname_id":"506782","city":"Поляны","city_en":"Polyany","longitude":39.82932,"latitude":54.71801},{"geoname_id":"552977","city":"Карабаново","city_en":"Karabanovo","longitude":38.7,"latitude":56.31667},{"geoname_id":"511565","city":"Пенза","city_en":"Penza","longitude":45.00464,"latitude":53.20066},{"geoname_id":"696581","city":"Помічна","city_en":"Pomichna","longitude":31.41583,"latitude":48.24222},{"geoname_id":"2267057","city":"Лиссабон","city_en":"Lisbon","longitude":-9.13333,"latitude":38.71667},{"geoname_id":"1819609","city":"Цзюлун","city_en":"Kowloon","longitude":114.18333,"latitude":22.31667},{"geoname_id":"314996","city":"Felahiye","city_en":"Felahiye","longitude":35.56722,"latitude":39.09056},{"geoname_id":"1796236","city":"Шанхай","city_en":"Shanghai","longitude":121.45806,"latitude":31.22222},{"geoname_id":"2643743","city":"Лондон","city_en":"London","longitude":-0.12574,"latitude":51.50853},{"geoname_id":"711350","city":"Буча","city_en":"Bucha","longitude":30.21201,"latitude":50.54345},{"geoname_id":"5506956","city":"Лас-Вегас","city_en":"Las Vegas","longitude":-115.13722,"latitude":36.17497},{"geoname_id":"2970761","city":"Ванв","city_en":"Vanves","longitude":2.29025,"latitude":48.82345},{"geoname_id":"625144","city":"Минск","city_en":"Minsk","longitude":27.56667,"latitude":53.9},{"geoname_id":"2843106","city":"Rummelsburg","city_en":"Rummelsburg","longitude":13.4934,"latitude":52.50146},{"geoname_id":"2988507","city":"Париж","city_en":"Paris","longitude":2.3488,"latitude":48.85341},{"geoname_id":"299445","city":"Текирова","city_en":"Tekirova","longitude":30.52723,"latitude":36.5017},{"geoname_id":"6691073","city":"Altstadt Nord","city_en":"Altstadt Nord","longitude":6.95752,"latitude":50.93893},{"geoname_id":"5391959","city":"Сан-Франциско","city_en":"San Francisco","longitude":-122.41942,"latitude":37.77493},{"geoname_id":"3095795","city":"Колобжег","city_en":"Kołobrzeg","longitude":15.58342,"latitude":54.17565},{"geoname_id":"702337","city":"Макарів","city_en":"Makariv","longitude":29.81128,"latitude":50.46408},{"geoname_id":"6545310","city":"Mitte","city_en":"Mitte","longitude":13.40489,"latitude":52.52003},{"geoname_id":"712200","city":"Безлюдовка","city_en":"Bezliudivka","longitude":36.26539,"latitude":49.87547},{"geoname_id":"140951","city":"Behbahān","city_en":"Behbahān","longitude":50.2417,"latitude":30.5959},{"geoname_id":"697593","city":"Первомайск","city_en":"Pervomays'k","longitude":30.85073,"latitude":48.04433},{"geoname_id":"709611","city":"Дрогобич","city_en":"Drohobych","longitude":23.50561,"latitude":49.34991},{"geoname_id":"708632","city":"Голая Пристань","city_en":"Hola Prystan’","longitude":32.52417,"latitude":46.52719},{"geoname_id":"707453","city":"Иванівка","city_en":"Ivanivka","longitude":34.55298,"latitude":46.72082},{"geoname_id":"693709","city":"Скадовск","city_en":"Skadowsk","longitude":32.91124,"latitude":46.1161},{"geoname_id":"707244","city":"Каховка","city_en":"Kakhovka","longitude":33.48698,"latitude":46.81371},{"geoname_id":"708878","city":"Геническ","city_en":"Genichesk","longitude":34.8034,"latitude":46.17592},{"geoname_id":"699811","city":"Новая Одесса","city_en":"Nova Odesa","longitude":31.78506,"latitude":47.30778},{"geoname_id":"698138","city":"Овидио́поль","city_en":"Ovidiopol","longitude":30.44127,"latitude":46.24998},{"geoname_id":"706945","city":"Комишани","city_en":"Komyshany","longitude":32.50719,"latitude":46.63716},{"geoname_id":"712508","city":"Білозерка","city_en":"Bilozerka","longitude":32.44251,"latitude":46.6248},{"geoname_id":"692087","city":"Светловодск","city_en":"Svitlovods'k","longitude":33.24106,"latitude":49.04894},{"geoname_id":"706352","city":"Ходоров","city_en":"Khodoriv","longitude":24.3047,"latitude":49.40993},{"geoname_id":"704901","city":"Коростень","city_en":"Korosten","longitude":28.63855,"latitude":50.95937},{"geoname_id":"691435","city":"Томаківка","city_en":"Tomakivka","longitude":34.74137,"latitude":47.81569},{"geoname_id":"688723","city":"Вишгород","city_en":"Vyshhorod","longitude":30.4898,"latitude":50.58476},{"geoname_id":"692856","city":"Стара Вижівка","city_en":"Stara Vyzhivka","longitude":24.43997,"latitude":51.43762},{"geoname_id":"712441","city":"Бердичев","city_en":"Berdychiv","longitude":28.60235,"latitude":49.89928},{"geoname_id":"688961","city":"Ворожба","city_en":"Vorozhba","longitude":34.21917,"latitude":51.17334},{"geoname_id":"693194","city":"Солоницевка","city_en":"Solonytsivka","longitude":36.03464,"latitude":49.99682},{"geoname_id":"711660","city":"Борисполь","city_en":"Boryspil","longitude":30.95501,"latitude":50.35269},{"geoname_id":"704363","city":"Краснопавловка","city_en":"Krasnopavlivka","longitude":36.31911,"latitude":49.13643},{"geoname_id":"756280","city":"Устшики-Дольне","city_en":"Ustrzyki Dolne","longitude":22.59381,"latitude":49.4304},{"geoname_id":"711669","city":"Борислав","city_en":"Boryslav","longitude":23.43238,"latitude":49.28672},{"geoname_id":"690165","city":"Великие Копани","city_en":"Velyki Kopani","longitude":32.97498,"latitude":46.48684},{"geoname_id":"1818379","city":"Wanchai","city_en":"Wanchai","longitude":114.17258,"latitude":22.28142},{"geoname_id":"5336477","city":"Chinatown","city_en":"Chinatown","longitude":-122.40858,"latitude":37.7966},{"geoname_id":"2643741","city":"Сити","city_en":"City of London","longitude":-0.09184,"latitude":51.51279},{"geoname_id":"709054","city":"Гадяч","city_en":"Hadyach","longitude":33.99099,"latitude":50.37112},{"geoname_id":"688746","city":"Виноградов","city_en":"Vynohradiv","longitude":23.02666,"latitude":48.14135},{"geoname_id":"689378","city":"Владимир-Волынский","city_en":"Volodymyr-Volynskyi","longitude":24.32364,"latitude":50.85253},{"geoname_id":"698908","city":"Новый Кичкас","city_en":"Novyy Kichkas","longitude":35.08333,"latitude":47.88333},{"geoname_id":"693090","city":"Сосновка","city_en":"Sosnivka","longitude":32.01103,"latitude":49.46774},{"geoname_id":"709248","city":"Фастов","city_en":"Fastiv","longitude":29.9177,"latitude":50.0767},{"geoname_id":"8519950","city":"Новосёлки","city_en":"Novosilky","longitude":30.46442,"latitude":50.35606},{"geoname_id":"705540","city":"Коблево","city_en":"Koblevo","longitude":31.20804,"latitude":46.66499},{"geoname_id":"690262","city":"Большая Гомольша","city_en":"Velikaya Gomol'sha","longitude":36.25543,"latitude":49.55486},{"geoname_id":"9983721","city":"Аркадия","city_en":"Arkadiya","longitude":30.76426,"latitude":46.43593},{"geoname_id":"708877","city":"Геническая Горка","city_en":"Heniches’ka Hirka","longitude":34.83068,"latitude":46.08047},{"geoname_id":"700022","city":"Нижнеднепровск","city_en":"Nizhnedneprovsk","longitude":35.07273,"latitude":48.50565},{"geoname_id":"713440","city":"Андреевка","city_en":"Andriyivka","longitude":37.54127,"latitude":48.81833},{"geoname_id":"697085","city":"Плескачовка","city_en":"Pleskachivka","longitude":32.13727,"latitude":49.20811},{"geoname_id":"693468","city":"Славянск","city_en":"Sloviansk","longitude":37.61667,"latitude":48.86667},{"geoname_id":"692366","city":"Стрелковичи","city_en":"Strilkovychi","longitude":23.13333,"latitude":49.5},{"geoname_id":"9113971","city":"Красный Городок","city_en":"Krasnyy Horodok","longitude":37.68472,"latitude":48.50898},{"geoname_id":"7733105","city":"Буковель","city_en":"Bukovel","longitude":24.39291,"latitude":48.36115},{"geoname_id":"706542","city":"Келеберда","city_en":"Keleberda","longitude":33.70805,"latitude":48.96564},{"geoname_id":"706347","city":"Ходосовка","city_en":"Khodosovka","longitude":30.52072,"latitude":50.271},{"geoname_id":"710374","city":"Чугуев","city_en":"Chuhuyiv","longitude":36.68803,"latitude":49.83588},{"geoname_id":"701075","city":"Миргород","city_en":"Myrhorod","longitude":33.60886,"latitude":49.96854},{"geoname_id":"712451","city":"Бердянск","city_en":"Berdyans'k","longitude":36.79872,"latitude":46.76644},{"geoname_id":"696760","city":"Погребы","city_en":"Pogreby","longitude":30.64455,"latitude":50.55453},{"geoname_id":"687790","city":"Железный порт","city_en":"Zaliznyi Port","longitude":32.29892,"latitude":46.12337},{"geoname_id":"705852","city":"Кирилівка","city_en":"Kyrylivka","longitude":35.36753,"latitude":46.37592},{"geoname_id":"696605","city":"Поляница","city_en":"Palyanytsya","longitude":24.43907,"latitude":48.34929},{"geoname_id":"687556","city":"Каролино-Бугаз","city_en":"Karolino-Buhaz","longitude":30.52609,"latitude":46.14492},{"geoname_id":"708126","city":"Грибовка","city_en":"Hrybivka","longitude":30.56601,"latitude":46.20941},{"geoname_id":"699192","city":"Новоселовка","city_en":"Novoselivka","longitude":34.45969,"latitude":48.45141},{"geoname_id":"618426","city":"Кишинёв","city_en":"Chisinau","longitude":28.8575,"latitude":47.00556},{"geoname_id":"616743","city":"Дружковка","city_en":"Druzhkovka","longitude":37.55259,"latitude":48.63013},{"geoname_id":"704617","city":"Ковель","city_en":"Kovel","longitude":24.70867,"latitude":51.21526},{"geoname_id":"705104","city":"Константиновка","city_en":"Kostyantynivka","longitude":37.7069,"latitude":48.5277},{"geoname_id":"701404","city":"Мелитополь","city_en":"Melitopol","longitude":35.36533,"latitude":46.84891},{"geoname_id":"709276","city":"Энергодар","city_en":"Energodar","longitude":34.6574,"latitude":47.49865},{"geoname_id":"697889","city":"Павлоград","city_en":"Pavlohrad","longitude":35.87098,"latitude":48.53426},{"geoname_id":"702723","city":"Лубны","city_en":"Lubny","longitude":32.99694,"latitude":50.01625},{"geoname_id":"694886","city":"Сальник","city_en":"Sal’nik","longitude":28.55596,"latitude":49.40504},{"geoname_id":"8140657","city":"Бельск","city_en":"Bil’s’k","longitude":27.24566,"latitude":51.45019},{"geoname_id":"689363","city":"Власовка","city_en":"Vlasovka","longitude":33.28164,"latitude":49.11503},{"geoname_id":"707099","city":"Калуш","city_en":"Kalush","longitude":24.37308,"latitude":49.01187},{"geoname_id":"692818","city":"Староконстантинов","city_en":"Starokostiantyniv","longitude":27.20342,"latitude":49.75764},{"geoname_id":"686919","city":"Знаменка","city_en":"Znamianka","longitude":32.66472,"latitude":48.71278},{"geoname_id":"687557","city":"Затока","city_en":"Zatoka","longitude":30.46538,"latitude":46.07251},{"geoname_id":"689362","city":"Власовка","city_en":"Vlasivka","longitude":35.78447,"latitude":49.45157},{"geoname_id":"700051","city":"Никополь","city_en":"Nikopol","longitude":34.39637,"latitude":47.57119},{"geoname_id":"498817","city":"Санкт-Петербург","city_en":"St Petersburg","longitude":30.31413,"latitude":59.93863},{"geoname_id":"712926","city":"Балаклея","city_en":"Balakliya","longitude":36.85951,"latitude":49.4627},{"geoname_id":"7525990","city":"Южноукраинск","city_en":"Yuzhnoukrainsk","longitude":31.18263,"latitude":47.81777},{"geoname_id":"699942","city":"Нежин","city_en":"Nizhyn","longitude":31.88688,"latitude":51.04801},{"geoname_id":"693457","city":"Смела","city_en":"Smila","longitude":31.88714,"latitude":49.22242},{"geoname_id":"694792","city":"Сарны","city_en":"Sarny","longitude":26.60191,"latitude":51.33795},{"geoname_id":"708296","city":"Горохов","city_en":"Horokhiv","longitude":24.76149,"latitude":50.50186},{"geoname_id":"691179","city":"Трускавец","city_en":"Truskavets’","longitude":23.50618,"latitude":49.27837},{"geoname_id":"696108","city":"Прилуки","city_en":"Pryluky","longitude":32.38761,"latitude":50.59323},{"geoname_id":"8519820","city":"Чайки","city_en":"Chayky","longitude":30.28385,"latitude":50.43034},{"geoname_id":"1273294","city":"Дели","city_en":"Delhi","longitude":77.23149,"latitude":28.65195},{"geoname_id":"697418","city":"Петропавловская Борщаговка","city_en":"Petropavlivs’ka Borshchahivka","longitude":30.33747,"latitude":50.43694},{"geoname_id":"8543503","city":"Софиевская Борщаговка","city_en":"Sofiyevskaya Borshchagovka","longitude":30.3576,"latitude":50.4149},{"geoname_id":"687997","city":"Южне","city_en":"Yuzhne","longitude":31.10131,"latitude":46.62211},{"geoname_id":"4684888","city":"Даллас","city_en":"Dallas","longitude":-96.80667,"latitude":32.78306},{"geoname_id":"690147","city":"Большие Сорочинцы","city_en":"Velyki Sorochyntsi","longitude":33.94144,"latitude":50.02314},{"geoname_id":"712300","city":"Березовка","city_en":"Berezivka","longitude":35.70736,"latitude":49.43935},{"geoname_id":"3081368","city":"Вроцлав","city_en":"Wrocław","longitude":17.03333,"latitude":51.1},{"geoname_id":"705061","city":"Копачев","city_en":"Kopachiv","longitude":31.07574,"latitude":51.22149},{"geoname_id":"4671654","city":"Остин","city_en":"Austin","longitude":-97.74306,"latitude":30.26715},{"geoname_id":"705135","city":"Конотоп","city_en":"Konotop","longitude":33.20263,"latitude":51.24032},{"geoname_id":"11139467","city":"Запселье","city_en":"Zapsillya","longitude":33.78521,"latitude":49.5586},{"geoname_id":"705392","city":"Коломия","city_en":"Kolomyia","longitude":25.03649,"latitude":48.53115},{"geoname_id":"508101","city":"Подольск","city_en":"Podolsk","longitude":37.55472,"latitude":55.42419},{"geoname_id":"704388","city":"Красноград","city_en":"Krasnohrad","longitude":35.44186,"latitude":49.38009},{"geoname_id":"698428","city":"Орехов","city_en":"Orikhiv","longitude":35.78575,"latitude":47.56731},{"geoname_id":"713174","city":"Бахмут","city_en":"Bakhmut","longitude":37.99987,"latitude":48.59559},{"geoname_id":"710035","city":"Мирноград","city_en":"Myrnohrad","longitude":37.26091,"latitude":48.30523},{"geoname_id":"695581","city":"Родинское","city_en":"Rodyns’ke","longitude":37.20602,"latitude":48.35199},{"geoname_id":"706749","city":"Карлівка","city_en":"Karlivka","longitude":35.12975,"latitude":49.45723},{"geoname_id":"707565","city":"Ирпень","city_en":"Irpin","longitude":30.25055,"latitude":50.52175},{"geoname_id":"700507","city":"Надворная","city_en":"Nadvirna","longitude":24.56936,"latitude":48.6348},{"geoname_id":"709755","city":"Долина","city_en":"Dolyna","longitude":24.00944,"latitude":48.9733},{"geoname_id":"710554","city":"Червоноград","city_en":"Chervonohrad","longitude":24.23514,"latitude":50.39105},{"geoname_id":"700607","city":"Муроване","city_en":"Murovane","longitude":22.9367,"latitude":49.52143},{"geoname_id":"711134","city":"Бурштын","city_en":"Burshtyn","longitude":24.62777,"latitude":49.25867},{"geoname_id":"706571","city":"Казатин","city_en":"Kozyatyn","longitude":28.83385,"latitude":49.71431},{"geoname_id":"688587","city":"Яготин","city_en":"Yahotyn","longitude":31.76246,"latitude":50.27975},{"geoname_id":"693581","city":"Славута","city_en":"Slavuta","longitude":26.86506,"latitude":50.30155},{"geoname_id":"691336","city":"Требухів","city_en":"Trebukhiv","longitude":30.90304,"latitude":50.48432},{"geoname_id":"691999","city":"Северодонецк","city_en":"Syeverodonets’k","longitude":38.49166,"latitude":48.94832},{"geoname_id":"698597","city":"Олевск","city_en":"Olevs’k","longitude":27.65228,"latitude":51.22482},{"geoname_id":"1816670","city":"Пекин","city_en":"Beijing","longitude":116.39723,"latitude":39.9075},{"geoname_id":"3129028","city":"Бадалона","city_en":"Badalona","longitude":2.24741,"latitude":41.45004},{"geoname_id":"697796","city":"Печерский район","city_en":"Pechersk Raion","longitude":30.56602,"latitude":50.41902},{"geoname_id":"712307","city":"Березовка","city_en":"Berezivka","longitude":28.1117,"latitude":48.59986},{"geoname_id":"690412","city":"Васильков","city_en":"Vasylkiv","longitude":30.31346,"latitude":50.18693},{"geoname_id":"712165","city":"Белая Церковь","city_en":"Bila Tserkva","longitude":30.11209,"latitude":49.80939},{"geoname_id":"11874722","city":"Новые Олешки","city_en":"Novi Oleshky","longitude":34.05822,"latitude":46.91554},{"geoname_id":"692135","city":"Суворовский район","city_en":"Suvorovs’kyy Rayon","longitude":32.61161,"latitude":46.66191},{"geoname_id":"8468760","city":"Новояворовск","city_en":"Novoyavorivs’k","longitude":23.57357,"latitude":49.93023},{"geoname_id":"694216","city":"Шепетівка","city_en":"Shepetivka","longitude":27.06365,"latitude":50.18545},{"geoname_id":"701544","city":"Майдан","city_en":"Maydan","longitude":26.13107,"latitude":50.98379},{"geoname_id":"699717","city":"Новоалександровка","city_en":"Novoaleksandrovka","longitude":35.91858,"latitude":49.12986},{"geoname_id":"701000","city":"Мишурин Рог","city_en":"Myshuryn Rih","longitude":33.94792,"latitude":48.81817},{"geoname_id":"702500","city":"Lyshche","city_en":"Lyshche","longitude":25.46748,"latitude":50.71675},{"geoname_id":"707559","city":"Иршава","city_en":"Irshava","longitude":23.03846,"latitude":48.31667},{"geoname_id":"699035","city":"Нововолынск","city_en":"Novovolyns’k","longitude":24.16265,"latitude":50.72576},{"geoname_id":"694919","city":"Сахновщина","city_en":"Sakhnovshchyna","longitude":35.87198,"latitude":49.15166},{"geoname_id":"688342","city":"Ясногородка","city_en":"Yasnogorodka","longitude":30.032859,"latitude":50.367369},{"geoname_id":"828202","city":"Куцовка","city_en":"Kutsivka","longitude":32.78896,"latitude":48.31697},{"geoname_id":"705062","city":"Kopachiv","city_en":"Kopachiv","longitude":30.48948,"latitude":50.125},{"geoname_id":"695464","city":"Ромни","city_en":"Romny","longitude":33.47471,"latitude":50.75104},{"geoname_id":"686803","city":"Звенигородка","city_en":"Zvenyhorodka","longitude":30.96755,"latitude":49.07866},{"geoname_id":"704858","city":"Корсунь-Шевченковский","city_en":"Korsun’-Shevchenkivs’kyy","longitude":31.25865,"latitude":49.41894},{"geoname_id":"710473","city":"Чигирин","city_en":"Chyhyryn","longitude":32.65549,"latitude":49.08376},{"geoname_id":"812917","city":"Losevo","city_en":"Losevo","longitude":36.32167,"latitude":49.95361},{"geoname_id":"693821","city":"Сихов","city_en":"Sykhiv","longitude":24.06284,"latitude":49.79427},{"geoname_id":"688393","city":"Yaseninichi","city_en":"Yaseninichi","longitude":26.25,"latitude":50.6},{"geoname_id":"688863","city":"Voznesenka","city_en":"Voznesenka","longitude":35.11667,"latitude":47.85},{"geoname_id":"6723018","city":"Shatylivka","city_en":"Shatylivka","longitude":36.2331,"latitude":50.01981},{"geoname_id":"6722153","city":"Ivanivka","city_en":"Ivanivka","longitude":36.20221,"latitude":50.00516},{"geoname_id":"711741","city":"Bol’shoy Fontan","city_en":"Bol’shoy Fontan","longitude":30.72435,"latitude":46.39488},{"geoname_id":"698874","city":"Новый Раздол","city_en":"Novyy Rozdil","longitude":24.13543,"latitude":49.47254},{"geoname_id":"707296","city":"Изяслав","city_en":"Izyaslav","longitude":26.82125,"latitude":50.11947},{"geoname_id":"696256","city":"Pryshyb","city_en":"Pryshyb","longitude":34.81806,"latitude":50.88974},{"geoname_id":"695389","city":"Rotok","city_en":"Rotok","longitude":30.15227,"latitude":49.78707},{"geoname_id":"703160","city":"Lisnyky","city_en":"Lisnyky","longitude":30.52016,"latitude":50.30445},{"geoname_id":"696359","city":"Peredmistna Slobidka","city_en":"Peredmistna Slobidka","longitude":30.58333,"latitude":50.43333},{"geoname_id":"694208","city":"Пирогово","city_en":"Pirogovo","longitude":28.4,"latitude":49.21667},{"geoname_id":"8519915","city_en":"Bykovnya","longitude":30.67139,"latitude":50.47292},{"geoname_id":"587084","city":"Баку","city_en":"Baku","longitude":49.89201,"latitude":40.37767},{"geoname_id":"693065","city_en":"Sotsmisto","longitude":37.5946,"latitude":48.73598},{"geoname_id":"3067696","city":"Прага","city_en":"Prague","longitude":14.42076,"latitude":50.08804},{"geoname_id":"3054643","city":"Будапешт","city_en":"Budapest","longitude":19.04045,"latitude":47.49835},{"geoname_id":"699317","city":"Novo-Poznyaki","city_en":"Novo-Poznyaki","longitude":30.63333,"latitude":50.41667},{"geoname_id":"700392","city_en":"Nebizhka","longitude":25.36198,"latitude":50.80533},{"geoname_id":"812913","city":"Petrenkov","city_en":"Petrenkov","longitude":36.34889,"latitude":49.98528},{"geoname_id":"688781","city":"Vydumka","city_en":"Vydumka","longitude":26.3,"latitude":50.61667},{"geoname_id":"708589","city":"Goloskovka","city_en":"Goloskovka","longitude":24.01667,"latitude":49.86667},{"geoname_id":"691959","city":"Taburishche","city_en":"Taburishche","longitude":33.25,"latitude":49.05},{"geoname_id":"8235645","city":"Volya-Kovel’skaya","city_en":"Volya-Kovel’s’ka","longitude":24.69788,"latitude":51.19197},{"geoname_id":"712631","city":"Belichi","city_en":"Belichi","longitude":30.34654,"latitude":50.46544},{"geoname_id":"9610411","city":"Бердянск","city_en":"Berdiansk","longitude":36.78448,"latitude":46.75858},{"geoname_id":"701965","city":"Малый Фонтан","city_en":"Malyy Fontan","longitude":30.7589,"latitude":46.44593},{"geoname_id":"708421","city":"Gorki","city_en":"Gorki","longitude":37.55,"latitude":48.71667},{"geoname_id":"711503","city_en":"Bazhanovo","longitude":33.4343,"latitude":47.97641},{"geoname_id":"686907","city":"Znesen’ye","city_en":"Znesen’ye","longitude":24.05,"latitude":49.85},{"geoname_id":"687640","city":"Zarech’ye","city_en":"Zarech’ye","longitude":30.10129,"latitude":49.7889},{"geoname_id":"697247","city":"Pidvarki","city_en":"Pidvarki","longitude":31.48333,"latitude":50.08333},{"geoname_id":"689702","city":"Vesely","city_en":"Vesely","longitude":37.6,"latitude":48.7},{"geoname_id":"702852","city":"Ломовка","city_en":"Lomovka","longitude":34.98333,"latitude":48.5},{"geoname_id":"696557","city":"Попельня","city_en":"Popilnia","longitude":29.45265,"latitude":49.9532},{"geoname_id":"8442498","city_en":"Boyarka","longitude":26.20925,"latitude":50.61922},{"geoname_id":"689344","city":"Vodopoy","city_en":"Vodopoy","longitude":32.06143,"latitude":46.96056},{"geoname_id":"688621","city":"Yablonovets","city_en":"Yablonovets","longitude":25.93333,"latitude":48.25},{"geoname_id":"691605","city":"Терны","city_en":"Terny","longitude":33.55806,"latitude":48.14333},{"geoname_id":"693942","city":"Шостка","city_en":"Shostka","longitude":33.4698,"latitude":51.86296},{"geoname_id":"706900","city":"Канев","city_en":"Kaniv","longitude":31.46004,"latitude":49.75182},{"geoname_id":"524901","city":"Москва","city_en":"Moscow","longitude":37.61556,"latitude":55.75222},{"geoname_id":"2669383","city":"Tarby","city_en":"Tarby","longitude":18.11667,"latitude":59.66667},{"geoname_id":"541240","city":"Кременчуг-Константиновский","city_en":"Kremenchug-Konstantinovskoye","longitude":43.6475,"latitude":43.79361},{"geoname_id":"700699","city":"Mostishche","city_en":"Mostishche","longitude":24.34006,"latitude":49.06769},{"geoname_id":"323786","city":"Анкара","city_en":"Ankara","longitude":32.85427,"latitude":39.91987},{"geoname_id":"704670","city":"Коцюбинское","city_en":"Kotsiubynske","longitude":30.32957,"latitude":50.48836},{"geoname_id":"689428","city":"Владимирец","city_en":"Volodymyrets’","longitude":26.14469,"latitude":51.4213},{"geoname_id":"1264527","city":"Ченнаи","city_en":"Chennai","longitude":80.27847,"latitude":13.08784},{"geoname_id":"1242170","city":"Kallady","city_en":"Kallady","longitude":81.7163,"latitude":7.7124},{"geoname_id":"708946","city":"Гатное","city_en":"Hatne","longitude":30.40386,"latitude":50.36144},{"geoname_id":"702648","city":"Лука","city_en":"Luka","longitude":33.28882,"latitude":50.46026},{"geoname_id":"711103","city":"Буск","city_en":"Bus’k","longitude":24.61227,"latitude":49.96548},{"geoname_id":"700909","city":"Могрица","city_en":"Mohrytsya","longitude":35.11312,"latitude":51.02912},{"geoname_id":"696677","city":"Пологи","city_en":"Polohy","longitude":36.25361,"latitude":47.48444},{"geoname_id":"702726","city_en":"Lubchitsy","longitude":27.65748,"latitude":50.5919},{"geoname_id":"701759","city_en":"Martusivka","longitude":30.86081,"latitude":50.31278},{"geoname_id":"703700","city":"Кульпарков","city_en":"Kulparkiv","longitude":23.99041,"latitude":49.81577},{"geoname_id":"3494242","city":"Пунта Кана","city_en":"Punta Cana","longitude":-68.40431,"latitude":18.58182},{"geoname_id":"670547","city_en":"Plauru","longitude":28.83017,"latitude":45.32397},{"geoname_id":"709966","city":"Дмитрушки","city_en":"Dmytrushky","longitude":30.28558,"latitude":48.79878},{"geoname_id":"711635","city":"Бородянка","city_en":"Borodianka","longitude":29.9201,"latitude":50.64484},{"geoname_id":"705560","city":"Княжичи","city_en":"Knyazhichi","longitude":30.78369,"latitude":50.46275},{"geoname_id":"8504960","city":"Центральный","city_en":"Centralniy","longitude":30.36072,"latitude":59.93111},{"geoname_id":"689916","city":"Верхнеднепровск","city_en":"Verkhn’odniprovs’k","longitude":34.33457,"latitude":48.65242},{"geoname_id":"693193","city":"Солонка","city_en":"Solonka","longitude":24.01028,"latitude":49.75621},{"geoname_id":"687093","city":"Жовква","city_en":"Zhovkva","longitude":23.9726,"latitude":50.05825},{"geoname_id":"8504651","city":"Софиевская Борщаговка","city_en":"Sofiyivska Borschagivka","longitude":30.36724,"latitude":50.41005},{"geoname_id":"692175","city":"Сурско-Михайловка","city_en":"Sursko-Mikhaylovka","longitude":34.72759,"latitude":48.27202},{"geoname_id":"7027042","city":"Маяк","city_en":"Mayak","longitude":32.4966,"latitude":45.34774},{"geoname_id":"701561","city":"Mayaky","city_en":"Mayaky","longitude":30.27413,"latitude":46.41748},{"geoname_id":"701559","city":"Маяки","city_en":"Mayaki","longitude":37.62433,"latitude":48.946},{"geoname_id":"706232","city":"Хотов","city_en":"Khotiv","longitude":30.46836,"latitude":50.33069},{"geoname_id":"712005","city":"Bobrytsya","city_en":"Bobrytsya","longitude":30.18858,"latitude":50.34998},{"geoname_id":"8516289","city":"Мила","city_en":"Myla","longitude":30.16905,"latitude":50.44179},{"geoname_id":"8643889","city":"Вышеград","city_en":"Vysehrad","longitude":14.41711,"latitude":50.06509},{"geoname_id":"3065328","city":"Старе-Место","city_en":"Old Town","longitude":14.42024,"latitude":50.087},{"geoname_id":"3071213","city":"Мала-Страна","city_en":"Malá Strana","longitude":14.40449,"latitude":50.08774},{"geoname_id":"6269470","city":"Černý Most","city_en":"Černý Most","longitude":14.57974,"latitude":50.10475},{"geoname_id":"3073838","city":"Karlín","city_en":"Karlín","longitude":14.44711,"latitude":50.09272},{"geoname_id":"696063","city":"Пуховка","city_en":"Pukhovka","longitude":30.7177,"latitude":50.6097},{"geoname_id":"695316","city":"Rozhny","city_en":"Rozhny","longitude":30.73503,"latitude":50.6669},{"geoname_id":"704557","city":"Козин","city_en":"Kozyn","longitude":30.65394,"latitude":50.21931},{"geoname_id":"706351","city":"Ходоров","city_en":"Khodoriv","longitude":31.23941,"latitude":49.92122},{"geoname_id":"7626326","city":"Teigebyen","city_en":"Teigebyen","longitude":11.0176,"latitude":60.22069},{"geoname_id":"689565","city":"Vynnyky","city_en":"Vynnyky","longitude":35.62776,"latitude":49.63591},{"geoname_id":"8524551","city":"Prolisky","city_en":"Prolisky","longitude":30.78,"latitude":50.39118},{"geoname_id":"711887","city":"Богородчани","city_en":"Bohorodchany","longitude":24.53834,"latitude":48.807},{"geoname_id":"8054119","city":"Podgor’ye","city_en":"Pidhir”ya","longitude":24.78033,"latitude":51.78339},{"geoname_id":"695584","city":"Родатичи","city_en":"Rodatychi","longitude":23.53336,"latitude":49.79862},{"geoname_id":"479561","city":"Уфа","city_en":"Ufa","longitude":55.96779,"latitude":54.74306},{"geoname_id":"700753","city":"Моршин","city_en":"Morshyn","longitude":23.87232,"latitude":49.15652},{"geoname_id":"700730","city":"Мошны","city_en":"Moshny","longitude":31.73708,"latitude":49.52754},{"geoname_id":"11069127","city":"Свыдивок","city_en":"Svidivok","longitude":36.06184,"latitude":48.59374},{"geoname_id":"9642873","city":"Пригородное","city_en":"Prymis’ke","longitude":37.45144,"latitude":47.12024},{"geoname_id":"686970","city":"Жванец","city_en":"Zhvanets","longitude":26.48744,"latitude":48.54968},{"geoname_id":"696308","city":"Prigorodok","city_en":"Prigorodok","longitude":26.40754,"latitude":48.53193},{"geoname_id":"8250815","city":"Карпаты","city_en":"Karpaty","longitude":22.87498,"latitude":48.52488},{"geoname_id":"700388","city":"Нечаево","city_en":"Nechaieve","longitude":31.4623,"latitude":48.81963},{"geoname_id":"689003","city":"Вороновица","city_en":"Voronovytsya","longitude":28.68078,"latitude":49.10954},{"geoname_id":"704143","city":"Кременец","city_en":"Kremenets","longitude":25.72459,"latitude":50.09693},{"geoname_id":"709888","city":"Добровеличковка","city_en":"Dobrovelychkivka","longitude":31.18028,"latitude":48.38778},{"geoname_id":"0","city":"Kopachiv","city_en":"Kopachiv","longitude":30.48948,"latitude":50.125},{"geoname_id":"696078","city":"Zarichany","city_en":"Zarichany","longitude":28.65,"latitude":50.23333},{"geoname_id":"776251","city":"Бемово","city_en":"Bemowo","longitude":20.90844,"latitude":52.2546},{"geoname_id":"691628","city":"Терновка","city_en":"Ternovka","longitude":36.08256,"latitude":48.52254},{"geoname_id":"8147376","city":"Zavods’ke","city_en":"Zavods’ke","longitude":31.18698,"latitude":51.96415},{"geoname_id":"711416","city":"Броды","city_en":"Brody","longitude":25.15027,"latitude":50.08791},{"geoname_id":"700568","city":"Николаев","city_en":"Mykolaiv","longitude":23.98522,"latitude":49.52372},{"geoname_id":"709429","city":"Дунаевцы","city_en":"Dunaivtsi","longitude":26.85636,"latitude":48.88909},{"geoname_id":"688440","city":"Ярмолинцы","city_en":"Yarmolyntsi","longitude":26.83725,"latitude":49.19236},{"geoname_id":"692832","city":"Старобельск","city_en":"Starobil’s’k","longitude":38.91069,"latitude":49.27832},{"geoname_id":"705612","city":"Klokuchka","city_en":"Klokuchka","longitude":25.91431,"latitude":48.30546},{"geoname_id":"529638","city":"Мамонтовка","city_en":"Mamontovka","longitude":37.81972,"latitude":55.98083},{"geoname_id":"503977","city":"Пушкино","city_en":"Pushkino","longitude":37.86667,"latitude":56.01722},{"geoname_id":"702658","city":"Луганск","city_en":"Luhansk","longitude":39.31706,"latitude":48.56705},{"geoname_id":"686820","city":"Zubra","city_en":"Zubra","longitude":24.05079,"latitude":49.76397},{"geoname_id":"695781","city":"Рава-Русская","city_en":"Rava-Rus’ka","longitude":23.62825,"latitude":50.23079},{"geoname_id":"706987","city":"Каменные Потоки","city_en":"Kamiani Potoky","longitude":33.52638,"latitude":48.97974},{"geoname_id":"805757","city":"Sadky","city_en":"Sadky","longitude":35.0925,"latitude":51.09556},{"geoname_id":"702574","city":"Лутовиновка","city_en":"Lutovinovka","longitude":33.9051,"latitude":49.23726},{"geoname_id":"708551","city":"Говтва","city_en":"Goltva","longitude":33.85422,"latitude":49.4202},{"geoname_id":"690804","city":"Угринів","city_en":"Uhryniv","longitude":24.69292,"latitude":48.9552},{"geoname_id":"1492252","city":"Шерегеш","city_en":"Sheregesh","longitude":87.9869,"latitude":52.9209},{"geoname_id":"710894","city":"Checheleve","city_en":"Checheleve","longitude":33.4031,"latitude":49.01611},{"geoname_id":"708181","city":"Гребінка","city_en":"Hrebinka","longitude":32.4361,"latitude":50.11712},{"geoname_id":"709546","city":"Дубляни","city_en":"Dublyany","longitude":24.08637,"latitude":49.90411},{"geoname_id":"865086","city":"Таїрове","city_en":"Tayirove","longitude":30.64891,"latitude":46.36313},{"geoname_id":"704556","city":"Kozyn","city_en":"Kozyn","longitude":25.4623,"latitude":50.26769},{"geoname_id":"312132","city":"Himmetdede","city_en":"Himmetdede","longitude":35.09607,"latitude":38.91028},{"geoname_id":"321580","city":"Белек","city_en":"Belek","longitude":31.05556,"latitude":36.86278},{"geoname_id":"704028","city":"Кривополье","city_en":"Krivopol’ye","longitude":24.69624,"latitude":48.19516},{"geoname_id":"687872","city":"Загвіздя","city_en":"Zahvizdya","longitude":24.65275,"latitude":48.91836},{"geoname_id":"7536152","city":"Стаище","city_en":"Staische","longitude":24.73331,"latitude":48.18646},{"geoname_id":"690556","city":"Уютное","city_en":"Uyutnoye","longitude":33.29796,"latitude":45.19769},{"geoname_id":"554234","city":"Калининград","city_en":"Kaliningrad","longitude":20.51095,"latitude":54.70649},{"geoname_id":"8167061","city":"Зайци","city_en":"Zaytsi","longitude":31.1217,"latitude":51.46982},{"geoname_id":"700918","city":"Могилев-Подольский","city_en":"Mohyliv-Podilskyi","longitude":27.7982,"latitude":48.44598},{"geoname_id":"688512","city":"Ямниця","city_en":"Yamnytsya","longitude":24.7075,"latitude":48.98972},{"geoname_id":"873901","city":"Обухово","city_en":"Obukhovo","longitude":30.45111,"latitude":59.84389},{"geoname_id":"516305","city":"Обухово","city_en":"Obukhovo","longitude":38.2725,"latitude":55.83278},{"geoname_id":"537127","city":"Лахтинский","city_en":"Lakhtinskiy","longitude":30.14717,"latitude":59.99521},{"geoname_id":"711359","city":"Брюховичи","city_en":"Bryukhovychi","longitude":23.95969,"latitude":49.90467},{"geoname_id":"687303","city":"Zeliv","city_en":"Zeliv","longitude":23.85518,"latitude":49.90376},{"geoname_id":"686762","city":"Ивано-Франково","city_en":"Ivano-Frankove","longitude":23.72913,"latitude":49.91978},{"geoname_id":"692301","city":"Судова Вишня","city_en":"Sudova Vyshnya","longitude":23.37218,"latitude":49.78892},{"geoname_id":"768142","city":"Korczowe","city_en":"Korczowe","longitude":23.08039,"latitude":49.95647},{"geoname_id":"772658","city":"Dzików Stary","city_en":"Dzików Stary","longitude":22.92984,"latitude":50.24699},{"geoname_id":"774707","city":"Bystre","city_en":"Bystre","longitude":22.39597,"latitude":50.37875},{"geoname_id":"775922","city":"Билгорай","city_en":"Biłgoraj","longitude":22.72204,"latitude":50.54114},{"geoname_id":"770383","city":"Яроцин","city_en":"Jarocin","longitude":22.32121,"latitude":50.56459},{"geoname_id":"754847","city":"Wólka Tanewska","city_en":"Wólka Tanewska","longitude":22.26113,"latitude":50.50005},{"geoname_id":"770425","city":"Янув-Любельский","city_en":"Janów Lubelski","longitude":22.41039,"latitude":50.70695},{"geoname_id":"767020","city":"Кунув","city_en":"Kunów","longitude":21.28058,"latitude":50.96156},{"geoname_id":"695966","city":"Pyatikhatki","city_en":"Pyatikhatki","longitude":35.46236,"latitude":47.50831},{"geoname_id":"708210","city":"Градижск","city_en":"Gradizhsk","longitude":33.13613,"latitude":49.23458},{"geoname_id":"693098","city":"Соснівка","city_en":"Sosnivka","longitude":28.45454,"latitude":50.05266},{"geoname_id":"712787","city":"Барышевка","city_en":"Baryshivka","longitude":31.32173,"latitude":50.36098},{"geoname_id":"691303","city":"Trituznaya","city_en":"Trituznaya","longitude":34.60477,"latitude":48.51769},{"geoname_id":"689159","city":"Волочиск","city_en":"Volochysk","longitude":26.21568,"latitude":49.53748},{"geoname_id":"707292","city":"Изюм","city_en":"Izyum","longitude":37.24849,"latitude":49.20875},{"geoname_id":"702874","city":"Лохвиця","city_en":"Lokhvytsya","longitude":33.26024,"latitude":50.36776},{"geoname_id":"738377","city":"Umraniye","city_en":"Umraniye","longitude":29.12476,"latitude":41.01643},{"geoname_id":"541406","city":"Красный Строитель","city_en":"Biryulëvo Zapadnoye","longitude":37.64282,"latitude":55.58766},{"geoname_id":"465057","city":"Замоскворечье","city_en":"Zamoskvorech’ye","longitude":37.63333,"latitude":55.73333},{"geoname_id":"8436065","city":"Чикаго-Луп","city_en":"Loop","longitude":-87.6333,"latitude":41.88407},{"geoname_id":"4887398","city":"Чикаго","city_en":"Chicago","longitude":-87.65005,"latitude":41.85003},{"geoname_id":"706380","city":"Хмельник","city_en":"Khmilnyk","longitude":27.95754,"latitude":49.55979},{"geoname_id":"2781321","city":"Брун-ам-Гебирге","city_en":"Brunn am Gebirge","longitude":16.28466,"latitude":48.10697},{"geoname_id":"7872983","city":"Vösendorf","city_en":"Vösendorf","longitude":16.33753,"latitude":48.11912},{"geoname_id":"2761369","city":"Вена","city_en":"Vienna","longitude":16.37208,"latitude":48.20849},{"geoname_id":"700371","city":"Недригайлів","city_en":"Nedryhayliv","longitude":33.87626,"latitude":50.83398},{"geoname_id":"695082","city":"Ruzhyn","city_en":"Ruzhyn","longitude":29.20455,"latitude":49.7228},{"geoname_id":"536398","city":"Лефортово","city_en":"Lefortovo","longitude":37.7,"latitude":55.76667},{"geoname_id":"691715","city":"Теофиполь","city_en":"Teofipol","longitude":26.41433,"latitude":49.83818},{"geoname_id":"2122090","city":"Певек","city_en":"Pevek","longitude":170.29993,"latitude":69.70287},{"geoname_id":"2131038","city":"Апапельгино","city_en":"Apapel’gino","longitude":170.61639,"latitude":69.79611},{"geoname_id":"1692192","city":"Кесон-Сити","city_en":"Quezon City","longitude":121.0509,"latitude":14.6488},{"geoname_id":"511196","city":"Пермь","city_en":"Perm","longitude":56.25017,"latitude":58.01046},{"geoname_id":"710129","city":"Деражня","city_en":"Derazhnya","longitude":27.43382,"latitude":49.2692},{"geoname_id":"710565","city":"Радивилов","city_en":"Radyvyliv","longitude":25.25576,"latitude":50.12994},{"geoname_id":"8504949","city":"Василеостровский","city_en":"Vasyl’evsky Ostrov","longitude":30.25377,"latitude":59.94091},{"geoname_id":"713749","city":"Охтирка","city_en":"Okhtyrka","longitude":34.89879,"latitude":50.31036},{"geoname_id":"705183","city":"Слобожанское","city_en":"Sloboschanske","longitude":36.52618,"latitude":49.59701},{"geoname_id":"702972","city":"Лисичанск","city_en":"Lisichansk","longitude":38.44207,"latitude":48.90485},{"geoname_id":"10400165","city":"Морской порт Черноморск","city_en":"Chornomorsk SeaPort","longitude":30.65666,"latitude":46.3199},{"geoname_id":"1270642","city":"Гургаон","city_en":"Gurgaon","longitude":77.02635,"latitude":28.4601},{"geoname_id":"1270644","city":"Гургаон","city_en":"Gurugram","longitude":77.00592,"latitude":28.43891},{"geoname_id":"707047","city":"Камянка","city_en":"Kamianka","longitude":29.4146,"latitude":49.93075},{"geoname_id":"707052","city":"Каменка","city_en":"Kamianka","longitude":32.10396,"latitude":49.0318},{"geoname_id":"513471","city":"Озерки","city_en":"Ozerki","longitude":30.31128,"latitude":60.03947},{"geoname_id":"2562620","city":"Рабат","city_en":"Rabat","longitude":14.39872,"latitude":35.88152},{"geoname_id":"2562261","city":"Зеббудж","city_en":"Haz-Zebbug","longitude":14.44111,"latitude":35.87194},{"geoname_id":"480060","city":"Тверь","city_en":"Tver’","longitude":35.90057,"latitude":56.85836},{"geoname_id":"565197","city":"Дорогомилово","city_en":"Dorogomilovo","longitude":37.56667,"latitude":55.75},{"geoname_id":"710027","city":"Дитятки","city_en":"Dityatki","longitude":30.14654,"latitude":51.1104},{"geoname_id":"11549798","city":"la Salut","city_en":"la Salut","longitude":2.15437,"latitude":41.41243},{"geoname_id":"3128760","city":"Барселона","city_en":"Barcelona","longitude":2.15899,"latitude":41.38879},{"geoname_id":"618883","city":"Ждановичи","city_en":"Zhdanovichy","longitude":27.425,"latitude":53.9432},{"geoname_id":"1500933","city":"Лабытнанги","city_en":"Labytnangi","longitude":66.41833,"latitude":66.65722},{"geoname_id":"623956","city":"Острошицкий Городок","city_en":"Ostroshitskiy Gorodok","longitude":27.695,"latitude":54.0651},{"geoname_id":"2022890","city":"Хабаровск","city_en":"Khabarovsk","longitude":135.08379,"latitude":48.48271},{"geoname_id":"526480","city":"Минеральные Воды","city_en":"Mineralnye Vody","longitude":43.13528,"latitude":44.21028},{"geoname_id":"4504761","city":"Wenonah","city_en":"Wenonah","longitude":-75.14879,"latitude":39.79456},{"geoname_id":"696283","city":"Приморское","city_en":"Prymors’ke","longitude":29.60528,"latitude":45.51761},{"geoname_id":"1282027","city":"Мале","city_en":"Malé","longitude":73.50916,"latitude":4.17521},{"geoname_id":"1273193","city":"Деория","city_en":"Deoria","longitude":83.77936,"latitude":26.50167},{"geoname_id":"11151969","city":"Южный","city_en":"Pivdennyy","longitude":35.18887,"latitude":47.77575},{"geoname_id":"687245","city":"Жашков","city_en":"Zhashkiv","longitude":30.09888,"latitude":49.2459},{"geoname_id":"703140","city":"Летки","city_en":"Lëtki","longitude":30.74867,"latitude":50.70897},{"geoname_id":"702927","city":"Litky","city_en":"Litky","longitude":28.42095,"latitude":51.05073},{"geoname_id":"9533251","city":"Sotsmisto","city_en":"Sotsmisto","longitude":34.67074,"latitude":48.47346},{"geoname_id":"704138","city":"Кремінна","city_en":"Kreminna","longitude":38.21792,"latitude":49.0495},{"geoname_id":"625409","city":"Марьина Горка","city_en":"Mar’’ina Horka","longitude":28.147,"latitude":53.509},{"geoname_id":"2023469","city":"Иркутск","city_en":"Irkutsk","longitude":104.29639,"latitude":52.29778}]